{ "places": [
    {
        "name": "Capulus Bagels & Coffee Shop",
        "openHours": "Monday - Saturday, 10h00 - 19h00",
        "lat": 43.926348,
        "lon": 2.1444273,
        "address":  "18 rue de Verdusse",
        "type" : "Bagels & Coffee Shop",
        "wifi": {"available": true},
        "power": {"available": true},
        "url": "http://fr-fr.facebook.com/pages/Capulus-Bagels-Coffee-Shop/1497991170420468"
    },
	{
        "name": "Canvas op de 7de",
        "lat": 52.35335,
        "lon": 4.91296,
        "openHours": "12h00 - 18h00",
        "address": "Wibautstraat 150",
        "type" : "Coffee",
        "power": {"available": true},
        "wifi": {"available": true},
        "url":  "http://www.canvas7.nl/‎"
    },
    {
        "name": "Mr Bean",
        "lat": 52.353115,
        "lon": 4.893303,
        "openHours": "Mon / Fri: 07h00 - 19h00, Sat / Sun: 09h00 - 19h00",
        "address": "Ceintuurbaan 326",
        "type" : "Coffee",
        "power": {"available": true},
        "wifi": {"available": true},
        "url":  "http://mister-bean.nl‎‎"
    },
    {
        "name": "Multiplexe Angers",
        "lat": 47.478928,
        "lon": -0.549898,
        "openHours": "From Monday to Sunday - 10:00am to 1:00am",
        "address": "Avenue des Droits de l'Homme - Quartier St. Serge - 49000 Angers",
        "type": "Cinema",
        "url": "http://www.cinemasgaumontpathe.com/cinemas/cinema-gaumont-angers-multiplexe/informations-pratiques.html",
        "power": {"available": true },
        "wifi": {"available": true }
    },
    {
        "name": "Médiathèque d'Arles",
        "lat": 43.67624,
        "lon": 4.625513,
        "openHours": "From Monday to Friday - 1:00pm to 6:30pm - Wendesday - 10:00am to 6:30pm - saturday - 10:00am to 5:00pm",
        "address": "Place Félix Rey - 13200 Arles",
        "type": "Public place",
        "url": "http://www.mediatheque.ville-arles.fr",
        "power": {"available": true },
        "wifi": {"available": false }
    },
    {
        "name": "L'Antiga Estació",
        "lat": 41.394142,
        "lon": 2.183088,
        "openHours": "From Monday to Sunday - 10:00am to 9:00pm",
        "address": "Carrer d'Alí Bei, 80 - 08013 Barcelona",
        "type": "Coffee/Restaurant",
        "url": "https://www.barcelonanord.cat/en/station-map/ground-floor/",
        "power": {"available": false },
        "wifi": {"available": true }
    },
    {
        "name": "Helios Llibres",
        "lat": 41.38577,
        "lon": 2.13847,
        "openHours": "From Monday to Friday - 7:30am to 8:00pm - Saturday and Sunday - 8:00am to 2:00pm",
        "address": "C/Nicaragua 100, Barcelona",
        "type": "Library",
        "url": "http://heliosllibres.blogspot.com.es",
        "power": {"available": true },
        "wifi": {"available": true }
    },
    {
        "name": "Rabbar",
        "lat": 41.38651,
        "lon": 2.13231,
        "openHours": "From Monday to Sunday",
        "address": "Plaça de la concòrdia, Barcelona",
        "type": "Bar",
        "url": "http://www.rabbar.es",
        "power": {"available": true },
        "wifi": {"available": true }
    },
    {
        "name": "Starbucks Diagonal",
        "lat": 41.3911671,
        "lon": 2.1362266,
        "openHours": "From Monday to Friday - 7:30am to 10:00pm - Saturday and Sunday - 8:30am to 10:00pm",
        "address": "Avda. Diagonal, 640 - Barcelona",
        "type": "Coffee",
        "url": "http://www.starbucks.com/store/2244/es/diagonal-mar/avda-diagonal-no-3-barcelona-kya-08018",
        "power": {"available": true },
        "wifi": {"available": true }
    },
    {
        "name": "Club Cronopios",
        "lat": 41.3821922,
        "lon": 2.1658459,
        "openHours": "From Monday to Sunday - 6:00pm to 1:00am",
        "address": "Carrer de Ferlandina, 16 - Barcelona",
        "type": "Cultural Center/Coffee",
        "url": "https://clubcronopiosblog.wordpress.com",
        "power": {"available": true },
        "wifi": {"available": true },
        "comment": "Great friendly associative place with true wifi"
    },
    {
        "name": "Cafetaria El Corto Inglés",
        "lat": 41.3879722,
        "lon": 2.169051,
        "openHours": "From Monday to Sunday - 9:30pm a 9:30pm",
        "address": "Plaça de Catalunya, 14 - Barcelona",
        "type": "Restaurant/Coffee",
        "url": "http://restauracion.elcorteingles.es/cafeteria.html",
        "power": {"available": true },
        "wifi": {"available": true }
    },
    {
        "name": "Alsur Café",
        "lat": 41.3911279,
        "lon": 2.1713038,
        "openHours": "From Monday to Wednesday - 8:00am to 0:00 - Thursday - 8:00am to 1:00am - Friday - 8:00am to 3:00am - Saturday - 9:00am to 3:00am - Sunday - 9:00am to 0:00",
        "address": "Roger de Llúria, 23 - Barcelona",
        "type": "Coffee",
        "url": "http://www.alsurcafe.com/alsurcafe/lluria.html",
        "power": {"available": true },
        "wifi": {"available": true }
    },
    {
        "name": "Alsur Café (Lluria)",
        "lat": 41.3871079,
        "lon": 2.174921,
        "openHours": "From Monday - 10:00am to 1:00 - Thursday to Wednesday - 10:00am to 1:30am - Tuesday - 10:00am to 2:00am - Saturday - 10:00am to 3:00am - Sunday - 10:00am to 1:00",
        "address": "Sant Pere Més Alt, 4 - Barcelona",
        "type": "Coffee",
        "url": "http://www.alsurcafe.com/alsurcafe/lluria.html",
        "power": {"available": true },
        "wifi": {"available": true }
    },
    {
        "name": "Alsur Café (El born)",
        "lat": 41.38665,
        "lon": 2.18015,
        "openHours": "From Monday - 11:15am to 0:30 - Friday - 11:15am to 3:00am - Saturday - 10:00am to 3:00am - Sunday - 10:00am to 0:30",
        "address": "Plaza de Sant Cugat, 1 - Barcelona",
        "type": "Restaurant/Coffee",
        "url": "http://www.alsurcafe.com/alsurcafe/el_born.html",
        "power": {"available": true },
        "wifi": {"available": true }
    },
    {
        "name": "Granja Petitbo",
        "lat": 41.397547,
        "lon": 2.172550,
        "openHours": "From Monday - 08:30am to 22:30 - Thursday & Friday - 08:30am to 0:00am - Saturday - 10:00am to 0:00am - Sunday - 10:00am to 17:00",
        "address": "Passeig de Sant Joan, 82 - Barcelona",
        "type": "Restaurant/Coffee",
        "url": "http://www.granjapetitbo.com/",
        "power": {"available": false },
        "wifi": {"available": true }
    },
    {
        "name": "Betahaus",
        "lat": 52.502543,
        "lon": 13.412206,
        "address": "Prinzessinnenstraße 19-20, Berlin",
        "type": "coffee / coworking",
        "url": "http://www.betahaus.com/berlin",
        "power": {"available": true},
        "wifi": {"available": true}
    },{
        "name": "co-up",
        "lat": 52.500444,
        "lon": 13.41951,
        "address": "Adalbertstraße 8, Berlin",
        "type": "coworking",
        "url": "http://co-up.de/",
        "power": {"available": true},
        "wifi": {"available": true}
    },{
        "name": "Sankt Oberholz",
        "lat": 52.5295476,
        "lon": 13.4018946,
        "address": "Rosenthaler Straße 72a, Berlin",
        "type": "coffee / coworking",
        "url": "http://www.sanktoberholz.de/",
        "power": {"available": true},
        "wifi": {"available": true}
    },{
        "name": "MobileSuite",
        "lat": 52.543118,
        "lon": 13.414199,
        "address": "Pappelallee 78/79, Berlin",
        "type": "coworking",
        "url": "http://www.mobilesuite.de",
        "power": {"available": true},
        "wifi": {"available": true}
    },
    {
        "name": "Saint Seurin",
        "lat": 44.8437174,
        "lon": -0.5868276,
        "address":  "3, Place Lucien Victor Meunier",
        "url": "http://restaurant-saint-seurin.com",
        "openHours": "Monday to Saturday - 10:00am to 2:00am",
        "type" : "brasserie",
        "power": {"available": true},
        "wifi": {"available": true}
    },
    {
        "name": "L'Asile",
        "lat": 44.8426347,
        "lon": -0.5811413,
        "address":  "26, rue Rolland",
        "url": "http://lasile-bordeaux.fr",
        "type" : "coworking",
        "power": {"available": true},
        "wifi": {"available": true}
    },
    {
        "name": "Harriet's Café",
        "lat": 44.8433988,
        "lon": -0.577808,
        "address":  "12, Place des Grands Hommes",
        "type" : "coffee shop",
        "power": {"available": true},
        "wifi": {"available": true},
        "comment": "1st floor"
    },
    {
        "name": "Nature Cook",
        "lat": 44.8368387,
        "lon": -0.5799406,
        "address":  "21, Rue des Frères Bonie",
        "openHours": "Monday to Friday - 7:00am to 4:00pm",
        "type" : "snack bio",
        "power": {"available": true},
        "wifi": {"available": true}
    },
    {
        "name": "Le Node",
        "lat": 44.840458,
        "lon": -0.570447,
        "address":  "12 rue des Faussets",
        "url": "http://bxno.de/",
        "type" : "coworking",
        "power": {"available": true, "comment": "at least 8"},
        "wifi": {"available": true}
    },
    {
        "name": "Coolworking",
        "lat": 44.843098,
        "lon": -0.572875,
        "address": "9 rue de Condé",
        "url": "http://www.coolworking.fr/",
        "type" : "coworking",
        "power": {"available": true},
        "wifi": {"available": true}
    },
    {
        "name": "Kowork",
        "lat": 44.85437,
        "lon": -0.56601,
        "address": "92 Quai des Chartrons",
        "url": "http://www.kowork.fr/",
        "type": "coworking",
        "power": {"available": true},
        "wifi": {"available": true}
    },
    {
        "name": "Darwin",
        "lat": 44.84978,
        "lon": -0.56069,
        "address": "87 Quai des Queyries",
        "url": "http://www.coworkers.eu/",
        "type": "coworking",
        "power": {"available": true},
        "wifi": {"available": true}
    },
    {
        "name": "Chez Vincent",
        "lat": 44.823521,
        "lon": -0.618585,
        "address": "27 rue de Lyon",
        "type": "home coworking",
        "power": {"available": true},
        "wifi": {"available": true}
    },
    {
        "name": "Médiathèque Jacques Elul",
        "lat": 44.799583,
        "lon": -0.642509,
        "address": "21 Résidence Camponac",
        "url": "http://mediatheque.mairie-pessac.fr/",
        "type": "library",
        "power": {"available": true},
        "wifi": {"available": true}
    },
    {
        "name": "Fnac and Columbus",
        "lat": 44.8399427,
        "lon": -0.5739308,
        "openHours": "Monday to Saturday - 10:00am to 7:30pm and Sundays - 11:00am to 7:00pm",
        "address": "50, rue Ste Catherine",
        "url": "http://www.fnac.com/Bordeaux/Fnac-Bordeaux/cl116/w-4",
        "type": "shop and coffee",
        "power": {"available": true},
        "wifi": {"available": true},
        "comment": "go upstairs, at the top"
    },
    {
        "name": "Café des Arts",
        "lat": 44.8347446,
        "lon": -0.5731186,
        "openHours": "Monday to Sundays - 7:30am to 11:30pm",
        "address": "138, Cours Victor Hugo",
        "type": "brasserie/coffee",
        "power": {"available": true},
        "wifi": {"available": true}
    },
    {
        "name": "Conseil Départemental de Gironde",
        "lat": 44.83587,
        "lon": -0.58602,
        "openHours": "Monday to Thursday - 8:15am to 5:15pm - and Friday - 8:15am to 4:45pm",
        "address": "1, Esplanade Charles de Gaulle",
        "url": "http://www.gironde.fr",
        "type": "public place",
        "power": {"available": true},
        "wifi": {"available": true},
        "comment": "wifi, with your id card"
    },
    {
        "name": "Pause Nature",
        "lat": 44.840878,
        "lon": -0.5598081,
        "openHours": "Monday to Friday - 9:00am to 3:30pm",
        "address": "26/28, Place de Stalingrad",
        "url": "http://www.pausenature.fr",
        "type": "coffee/snack",
        "power": {"available": true},
        "wifi": {"available": true}
    },
    {
        "name": "Bar des Vedettes - Chez Fred",
        "lat": 44.83839,
        "lon": -0.56960,
        "openHours": "Monday to Friday - 7:30am to 2:00am",
        "address": "13, place du palais",
        "url": "le-burger-fermier.fr",
        "type": "restaurant",
        "power": {"available": true},
        "wifi": {"available": true}
    },
    {
        "name": "Burger Fermier",
        "lat": 44.82598,
        "lon": -0.55744,
        "openHours": "Monday to Saturday - 9:30am to 11:00pm",
        "address": "Place de Casablanca",
        "type": "restaurant",
        "power": {"available": true},
        "wifi": {"available": true}
    },
    {
        "name": "CAPC - Musée d'Art Contemporain de Bordeaux",
        "lat": 44.84888,
        "lon": -0.57316,
        "openHours": "11:00am to 6:00pm - wendesday - 11:00am to 8:00pm - closed on Monday",
        "address": "7, rue Ferrère",
        "url": "http://www.capc-bordeaux.fr",
        "type": "museum",
        "power": {"available": true},
        "wifi": {"available": true}
    },
    {
        "name": "Billy Factory",
        "lat": 44.8214926,
        "lon": -0.5825119,
        "openHours": "Monday to Saturday - 11:30am to 9:00pm - Saturday - 10:00am to 9:00pm",
        "address": "5, Place Louis Barthou",
        "url": "http://www.billyfactory.com",
        "type": "coffee shop",
        "power": {"available": true},
        "wifi": {"available": true},
        "comment": "Trolley: Barrière St Genès"
    },
    {
        "name": "Brasserie Terminus",
        "lat": 44.8265365,
        "lon": -0.5568704,
        "openHours": "Monday to Sunday - 11:00am to 10:30pm",
        "address": "28, Rue Charles Domercq",
        "type": "brasserie",
        "power": {"available": true},
        "wifi": {"available": true},
        "comment": "Trolley: Gare Saint-Jean"
    },
    {
        "name": "Le Garage Moderne",
        "lat": 44.86527,
        "lon": -0.55104,
        "openHours": "Monday to Friday - 9:00am to 6:00pm",
        "address": "1, Rue des étrangers",
        "url": "http://www.legaragemoderne.org",
        "type": "coop place",
        "power": {"available": true},
        "wifi": {"available": true},
        "comment": "Friendly and original place"
    },
    {
        "name": "Cap Sciences",
        "lat": 44.85963,
        "lon": -0.55422,
        "openHours": "Monday to Friday - 2:00pm to 6:00pm - Thursday - 2:00pm to 9:00pm - Saturday and Sunday - 2:00pm to 7:00pm",
        "address": "Hangar 20 - Quai de Bacalan",
        "url": "http://www.cap-sciences.net",
        "type": "public place",
        "power": {"available": true},
        "wifi": {"available": true},
        "comment": "1st floor"
    },
    {
        "name": "Golden Apple",
        "lat": 44.8545868,
        "lon": -0.5697613,
        "openHours": "Monday - 11:30pm to 3:00pm and 6:00 pm to 11:45pm Tuesday to Thursday - 11:30pm to 3:00pm and 6:00 pm to 2:00pm - Saturday - 12:00pm to 2:00pm",
        "address": "46, Rue Borie",
        "url": "http://www.golden-apple.fr",
        "type": "pub",
        "power": {"available": true},
        "wifi": {"available": true}
    },
    {
        "name": "French Coffee Shop",
        "lat": 44.8405389,
        "lon": -0.5732745,
        "openHours": "Tuesday to Saturday - 11:00am to 7:00pm",
        "address": "20, Rue du Parlement Sainte Catherine",
        "url": "http://www.frenchcoffeeshop.com",
        "type": "coffee shop",
        "power": {"available": true},
        "wifi": {"available": true}
    },
    {
      "name": "Exki Porte de Namur",
	  "openHours": "Mon-Fri 07:30-22:00; Sat 09:00-22:00; Sun 09:00-20:00",
      "lat": 50.837937,
      "lon": 4.362154,
      "address": "Chaussée d'Ixelles 12, 1050 Ixelles",
      "type" : "Food & coffee",
      "power": {"available": false},
      "wifi": {"available": true},
      "comment": "Nice comfy room upstairs with usually some free tables"
    },
    {
      "name": "JAT",
	  "openHours": "Mon-Fri 08:00-18:00; Sat-Sun 09:00-19:00",
      "lat": 50.840567,
      "lon": 4.359992,
      "address": "Rue de Namur 28, 1000 Brussels",
      "type" : "Coffee shop",
      "power": {"available": false},
      "wifi": {"available": true},
      "comment": "Can be noisy and crowded at weekends"
    },
	{
      "name": "Natural Caffè Mont des Arts",
	  "openHours": "Mon-Fri 7.30am-7pm; Sat-Sun 11am-7pm",
      "lat": 50.844132,
      "lon": 4.358031,
      "address": "Mont des Arts 20, 1000 Brussels",
      "type" : "Coffee shop",
      "power": {"available": false},
      "wifi": {"available": true}
    },
	{
      "name": "Natural Caffè Louise",
	  "openHours": "Mon-Fri 7.30am-7pm; Sat 9am-7pm; Sun 10am-6pm",
      "lat": 50.827487,
      "lon": 4.364330,
      "address": "196a Av. Louise 1050 Brussels",
      "type" : "Coffee shop",
      "power": {"available": false},
      "wifi": {"available": true}
    },
    {
        "name": "Coworking Pays Basque",
        "openHours": "9h00 - 18h00",
        "lat": 43.4621514,
        "lon": -1.5443029,
        "address":  "7 rue Chapelet 64200 Biarritz‎",
        "type" : "coworking",
        "power": {"available": true},
        "wifi": {"available": true},
        "url": "http://coworking-pb.com/"
    },
    {
        "name": "La Cocotte",
        "openHours": "9h00 - 19h00",
        "lat": 43.489755,
        "lon": -1.4707876,
        "address":  "15 place Paul Bert, 64100 Bayonne",
        "type" : "coworking",
        "power": {"available": true},
        "wifi": {"available": true, "comment": "currently not a very high bandwidth. expecting fiber-based connection asap"},
        "url": "http://www.cocotte-coworking.fr/"
    },
    {
        "name": "Carlisle Business Interaction Centre (C-BIC)",
        "lat": 54.89513,
        "lon": -2.93975,
        "address": "4-5 Paternoster Row, Carlisle, CA3 8TT",
        "type" : "co-working",
        "power": {"available": true},
        "wifi": {"available": true}
    },
    {
        "name": "Starbucks",
        "lat": 54.89507,
        "lon": -2.93542,
        "address": "64 Scotch Street, Carlisle, CA3 8PN",
        "type" : "coffee shop",
        "power": {"available": true},
        "wifi": {"available": true}
    },
    {
        "name": "The Coffee Kitchen",
        "lat": 54.66358,
        "lon": -3.36360,
        "address": "40 Challoner Street, Cockermouth, CA13 9QU",
        "type" : "coffee shop",
        "power": {"available": true},
        "wifi": {"available": true}
    },
    {
        "name": "Presse Café",
        "lat": 14.667021,
        "lon": -17.440041,
        "address": "Rue Carnot angle Boul. des Madeleines",
        "type": "coffee / coworking",
        "url": "http://pressecafe.sn",
        "power": {"available": true},
        "wifi": {"available": true}
    },
    {
        "name": "L'Equitable",
        "openHours": "Thusday - Friday, 12h00 - 19h00",
        "lat": 42.965589,
        "lon": 1.608845,
        "address":  "Place Georges Duthil",
        "type" : "Espace inter-associatif",
        "wifi": {"available": true},
        "power": {"available": true},
        "url": "http://www.lequitable.org/"
    },
	    {
        "name": "Bar du Chateau",
        "openHours": "Tuesday - Sunday, 10:00am to 7:00pm",
        "lat": 43.82857,
        "lon": 3.61784,
        "address":  "Quai du Garrel, 34380 Saint-Jean-de-Buèges",
        "type" : "Bar",
        "wifi": {"available": true},
        "power": {"available": true}
    },
    {
        "name": "Gédéon",
        "openHours": "Saturday to Sunday, 8:30am to 11:00pm",
        "lat": 43.54612,
        "lon": 3.98423,
        "address":  "159, Av. Grassion Cibrand - 34280 Carnon",
        "url": "http://www.plagedugedeon.com",
        "type" : "Bar - Hotel - Restaurant",
        "wifi": {"available": true},
        "power": {"available": true}
    },
    {
        "name": "Le Monde Moderne",
        "lat": 50.637486,
        "lon": 3.06397,
        "address":  "12 Rue des Trois Couronnes",
        "type" : "coffee",
        "power": {"available": true},
        "wifi": {"available": true}
    },
    {
        "name": "L'illustration",
        "lat": 50.639419,
        "lon": 3.05823,
        "address":  "1 Rue Doudin",
        "type" : "coffee",
        "power": {"available": false},
        "wifi": {"available": false}
    },
    {
        "name": "Meert",
        "lat": 50.637772,
        "lon": 3.061916,
        "address":  "27 Rue Esquermoise",
        "type" : "coffee and teamroom",
        "power": {"available": false},
        "wifi": {"available": false}
    },
    {
        "name": "Timberyard",
        "lat": 51.524126,
        "lon": -0.09638199999994868,
        "address": "61-67 Old Street, London EC1V 9HW",
        "openHours": "Monday to Friday, 08:00 to 20:00; Saturday to Sunday, 10:00 to 18:00",
        "type": "coffee",
        "power": { "available": true },
        "wifi": { "available": true }
    },
    {
        "name": "Foxcroft and Ginger",
        "lat": 51.513019,
        "lon": -0.13431400000001759,
        "address": "3 Berwick Street, Soho, London W1F 0DR",
        "openHours": "Monday, 08:00 to 19:00; Tuesday to Friday, 08:00 to 22:00; Saturday to Sunday, 09:00 to 22:00",
        "type": "coffee",
        "power": { "available": true },
        "wifi": { "available": true }
    },
    {
        "name": "Look mum no hands!",
        "lat": 51.523928,
        "lon": -0.09700900000007096,
        "address": "49 Old Street, London EC1V 9HX",
        "openHours": "Monday to Friday, 07:30 to 22:00; Saturday, 09:00 to 22:00; Sunday: 09:30 to 22:00",
        "type": "coffee",
        "power": { "available": true },
        "wifi": { "available": true, "comments": "The wi-fi is flaky." }
    },
    {
        "name": "Ace Hotel Shoreditch",
        "lat": 51.525744,
        "lon": -0.07723599999997077,
        "address": "100 Shoreditch High Street, London E1 6JQ",
        "type": "hotel/coffee",
        "power": { "available": true },
        "wifi": { "available": true }
    },
    {
        "name": "Hotel Chocolat",
        "lat": 51.514859,
        "lon": -0.12687800000003335,
        "address": "4 Monmouth Street, London WC2H 9HB",
        "type": "coffee",
        "power": { "available": true },
        "wifi": { "available": false }
    },
    {
        "name": "Taylor St Baristas",
        "lat": 51.51447,
        "lon": -0.08605199999999513,
        "address": "125 Old Broad Street, London EC2N 1AR",
        "openHours": "Monday to Friday, 07:00 to 18:00",
        "type": "coffee",
        "power": { "available": true },
        "wifi": { "available": true }
    },
    {
        "name": "Starbucks",
        "lat": 51.518916,
        "lon": -0.07838400000002821,
        "address": "8-10 Brushfield Street, London E1 6AN",
        "openHours": "Monday to Friday, 06:00 to 19:30; Saturday to Sunday, 08:00 to 19:30",
        "type": "coffee",
        "power": { "available": true },
        "wifi": { "available": true, "comments": "The wi-fi is flaky." }
    },
    {
        "name": "Prufrock Coffee",
        "lat": 51.519933,
        "lon": -0.10949400000004061,
        "address": "23-25 Leather Lane, London EC1N 7TE",
        "type": "coffee",
        "power": { "available": false },
        "wifi": { "available": true }
    },
    {
        "name": "With Jam & Bread",
        "lat": 51.456909,
        "lon": 0.009070999999948981,
        "address": "386 Lee High Road, London SE12 8RW",
        "openHours": "Monday to Friday, 08:00 to 16:00; Saturday, 09:30 to 15:30",
        "type": "coffee",
        "power": { "available": false },
        "wifi": { "available": true }
    },
    {
        "name": "Fix Coffee",
        "lat": 51.523372,
        "lon": -0.09330499999998665,
        "address": "161 Whitecross Street, London EC1Y 8JL",
        "openHours": "Monday to Friday, 07:00 to 19:00; Saturday, 08:00 to 19:00; Sunday: 09:00 to 19:00",
        "type": "coffee",
        "power": { "available": true, "comments": "There's only one power socket." },
        "wifi": { "available": true }
    },
    {
        "name": "The Oyster Shed",
        "lat": 51.509033,
        "lon": -0.08976800000004914,
        "address": "5 Angel Lane, London EC4R 3AB",
        "openHours": "Monday to Saturday, 12:00 to 22:00; Sunday, 12:30 to 21:00",
        "type": "bar",
        "power": { "available": true },
        "wifi": { "available": true }
    },
    {
        "name": "Marks and Spencer Café",
        "lat": 51.50124709772832,
        "lon": -0.1921561360359192,
        "address": "113 Kensington High Street, London W8 5SQ",
        "type": "coffee",
        "power": { "available": false },
        "wifi": { "available": true }
    },
    {
        "name": "Foyles Cafe",
        "lat": 51.514891,
        "lon": -0.1297620000000279,
        "address": "113-119 Charing Cross Road, London WC2H 0EB",
        "openHours": "Monday to Saturday, 07:00 to 20:30; Sunday, 10:00 to 17:30",
        "type": "coffee",
        "power": { "available": true, "comments": "One power socket in the south-east corner." },
        "wifi": { "available": true }
    },
    {
        "name": "Association Coffee",
        "lat": 51.5136,
        "lon": -0.07911000000001422,
        "address": "10-12 Creechurch Lane, London EC3A 5AY",
        "openHours": "Monday to Friday, 07:30 to 17:00",
        "type": "coffee",
        "power": { "available": false },
        "wifi": { "available": true }
    },
    {
        "name": "Timberyard",
        "lat": 51.512839,
        "lon": -0.1272430000000213,
        "address": "7 Upper St Martin's Lane, London WC2H",
        "openHours": "Monday to Friday, 08:00 to 20:00; Saturday, 10:00 to 20:00; Sunday, 10:00 to 18:00",
        "type": "coffee",
        "power": { "available": true },
        "wifi": { "available": true }
    },
    {
        "name": "Ozone Coffee Roasters",
        "lat": 51.524696,
        "lon": -0.08685700000000907,
        "address": "11 Leonard Street, London EC2A 4AQ",
        "openHours": "Monday to Friday, 07:30 to 17:00; Saturday to Sunday, 09:00 to 16:00",
        "type": "coffee",
        "power": { "available": true },
        "wifi": { "available": true }
    },
    {
        "name": "Salvation Jane",
        "lat": 51.52431,
        "lon": -0.08737300000007053,
        "address": "1 Oliver's Yard, 55 City Road, London EC1Y 1HQ",
        "openHours": "Monday, 08:00 to 16:00; Tuesday to Friday, 08:00 to 22:00; Saturday to Sunday, 09:00 to 16:00",
        "type": "coffee",
        "power": { "available": false },
        "wifi": { "available": true }
    },
    {
        "name": "Talkhouse Coffee",
        "lat": 51.517815,
        "lon": -0.206698,
        "address": "275 Portobello Rd, London W11 1LR",
        "openHours": "Monday, closed; Tuesday to Friday, 08:00 to 17:00; Saturday, 09.30 to 19:00; Sunday, 09:30 to 17:00",
        "type": "coffee",
        "power": { "available": true },
        "wifi": { "available": true }
    },
    {
        "name": "La Cordée Perrache",
        "lat": 45.750516,
        "lon": 4.825557000000003,
        "address":  "13 cours de Verdun 69002 Lyon",
        "type": "coworking",
        "url": "http://www.la-cordee.net/"
    },
    {
        "name": "La Cordée Liberté",
        "lat": 45.7573428,
        "lon": 4.8427315000000135,
        "address":  "61 cours de la Liberté 69003 Lyon",
        "type": "coworking",
        "url": "http://www.la-cordee.net/"
    },
    {
        "name": "La Cordée Charpennes",
        "lat": 45.77138189999999,
        "lon": 4.863123200000018,
        "address":  "27 rue Henri Rolland 69100 Villeurbanne",
        "type": "coworking",
        "url": "http://www.la-cordee.net/"
    },
    {
        "name": "L'Antre Autre",
        "lat": 45.769194,
        "lon": 4.83159,
        "address":  "11 rue Terme 69001 Lyon",
        "type": "coffee / restaurant",
        "url": "http://www.lantreautre.fr"
    },
    {
        "name": "La Folie Douce",
        "lat": 45.7724217,
        "lon": 4.8343591,
        "address":  "7, pl. Colbert 69001 Lyon",
        "type": "coffee",
        "power": {"available": true, "comment": "for one table"},
        "wifi": {"available": true, "comment": "ask to the boss to get the code"}
    },
    {
        "name": "Le Tasse Livre",
        "lat": 45.7687415,
        "lon": 4.830928,
        "address":  "place sathonay 69001 Lyon",
        "type": "coffee",
        "power": {"available": true},
        "wifi": {"available": true}
    },
    {
        "name": "Garolab",
        "lat": 44.497851,
        "lon": 0.164874,
        "address":  "14, Place du Marché",
        "url": "http://garolab.com/",
        "type" : "coworking / fablab",
        "power": {"available": true},
        "wifi": {"available": true}
    },
    {
        "name": "Le Môle",
        "lat": 43.29531,
        "lon": 5.36180,
        "openHours": "Monday 12h00 - 19h00, Wednesday to Saturday, 12h00 - 19h00",
        "address":  "01 esplanade du J4 - Mucem",
        "type" : "coffee/restaurant",
        "url": "http://www.passedat.fr/#!le-mole/",
        "power": {"available": true},
        "wifi": {"available": false}
    },
    {
        "name": "Grand Escalier",
        "lat": 43.301308,
        "lon": 5.3805723,
        "openHours": "Monday to Sunday - 6:30am to 10:00pm",
        "address":  "39, Boulevard Athènes - 13001 Marseille",
        "type" : "coffee/restaurant",
        "url": "https://www.facebook.com/pages/Brasserie-Le-Grand-Escalier-Marseille/409279962446559",
        "power": {"available": true},
        "wifi": {"available": true}
    },
    {
        "name": "La Boate",
        "lat": 43.292172,
        "lon": 5.37293,
        "openHours": "Monday to Friday - 9:30am to 6:00pm",
        "address":  "35, Rue de la Paix Marcel Paul - 13001 Marseille ",
        "type" : "coworking",
        "url": "http://laboate.com/",
        "power": {"available": true},
        "wifi": {"available": true}
    },
    {
        "name": "Capitainerie Coworking",
        "openHours": "9h30 / 18h Lun - Ven",
        "lat": 44.018719,
        "lon": 1.355046,
        "address": "10 rue de la comédie, 82000 Montauban",
        "type" : "coworking",
        "power": {"available": true},
        "wifi": {"available": true},
        "url": "http://www.capitainerie-coworking.com/montauban"
    },
    {
        "name": "Red Rock Coffee",
        "openHours": "Monday - Sunday:7am - 11pm",
        "lat": 37.3935353,
        "lon": -122.0788645,
        "address":  "201 Castro Street - Mountain View, CA 94041",
        "type" : "Non-profit coffeeshop",
        "wifi": {"available": true},
        "power": {"available": true},
        "url": "http://www.redrockcoffee.org/"
    },
    {
        "name": "Lieu Unique",
        "openHours": "Monday - 11:00am to 8:00pm - From Tuesday to Wednesday - 11:00am to 1:00pm - Thursday - 11:00am to 2:00pm - From Thursday to Saturday - 11:00am to 3:00pm - Sunday - 3:00pm to 8:00pm",
        "lat": 47.215265,
        "lon": -1.54573,
        "address": "2, rue de la Biscuiterie - Quai Ferdinand Favre - 44013 Nantes",
        "type" : "coffee",
        "power": {"available": true},
        "wifi": {"available": true},
        "url": "http://www.lelieuunique.com"
    },
    {
        "name": "La Maison Café",
        "openHours": "From Monday to Sunday - 3:00pm to 2:00am",
        "lat": 47.2200297,
        "lon": -1.5497687,
        "address": "4, rue Lebrun - 44000 Nantes",
        "type" : "cocktails bar - coffee",
        "power": {"available": true},
        "wifi": {"available": true},
        "url": "https://www.facebook.com/pages/la-Maison-Caf%C3%A9-Nantes/313440640732"
    },
    {
        "name": "Columbus",
        "openHours": "From Monday to Saturday - 8:00am to 7:30pm",
        "lat": 47.214015,
        "lon": -1.562183,
        "address": "5, square Fleuriot de l'Angle - 44000 Nantes",
        "type" : "cocktails bar - coffee",
        "power": {"available": true},
        "wifi": {"available": true},
        "url": "http://www.columbuscafe.com/columbus-cafe-nantes.htm"
    },
    {
        "name": "Solilab",
        "openHours": "From Tuesday to Saturday - 10:00am to 6:00pm",
        "lat": 47.200967,
        "lon": -1.571585,
        "address": "8, rue de Saint-Domingue - 44200 Nantes",
        "type" : "Collaborative Place",
        "power": {"available": true},
        "wifi": {"available": true},
        "url": "http://www.ecossolies.fr/-Le-Solilab-"
    },
    {
        "name": "Delight Café",
        "openHours": "From Monday to Saturday - 9:00am to 10:00pm - Sunday - 12:00am to 8:00pm",
        "lat": 47.213618,
        "lon": -1.558031,
        "address": "4, place du Commerce - 44000 Nantes",
        "type" : "Coffee Shop",
        "power": {"available": true},
        "wifi": {"available": true},
        "url": "http://www.delightcafe.fr/"
    },
    {
        "name": "Natural Bread Co.",
        "openHours": "7.30am - 5pm",
        "lat": 51.7580976,
        "lon": -1.2630194,
        "address": "29 Little Clarendon Street, Oxford",
        "type" : "coffee",
        "power": {"available": true, "comment": "a few plugs here and there, just ask the staff"},
        "wifi": {"available": true, "comment": "the password is on the blackboards"},
        "url": "http://naturalbreadcompany.co.uk/"
    },
    {
        "name": "Café CRAFT",
        "lat": 48.8731907,
        "lon": 2.3631488,
        "address": "24 Rue des Vinaigriers - 75010 Paris",
        "type": "coffee / coworking",
        "url": "http://cafe-craft.com",
        "power": {"available": true},
        "wifi": {"available": true}
    },
    {
        "name": "L'ANTICAFE BEAUBOURG",
        "lat": 48.8625921,
        "lon": 2.3512003,
        "address": "79 Rue Quincampoix - 75003 Paris",
        "type": "coworking",
        "url": "http://anticafe.fr",
        "power": {"available": true},
        "wifi": {"available": true}
    },
    {
        "name": "L'ANTICAFE OLYMPIADES",
        "lat": 48.8254416,
        "lon": 2.3665593,
        "address": "59 Rue Nationale - 75013 Paris",
        "type": "coworking",
        "url": "http://anticafe.fr",
        "power": {"available": true},
        "wifi": {"available": true}
    },
    {
        "name": "L'ANTICAFE LOUVRE",
        "lat": 48.8641804,
        "lon": 2.3362479,
        "address": "10 Rue Richelieu - 75001 Paris",
        "type": "coworking",
        "url": "http://anticafe.fr",
        "power": {"available": true},
        "wifi": {"available": true}
    },
    {
        "name": "Soleilles Cowork",
        "lat": 48.868143,
        "lon": 2.339605,
        "address": "13 rue Vivienne - 75002 Paris",
        "type": "coworking",
        "url": "http://www.soleillescowork.com",
        "power": {"available": true},
        "wifi": {"available": true}
    },
    {
        "name": "Le Laptop",
        "lat": 48.877406,
        "lon": 2.3907456,
        "address": "6 Rue Arthur Rozier - 75019 Paris",
        "type": "coworking",
        "url": "http://www.lelaptop.com",
        "power": {"available": true},
        "wifi": {"available": true}
    },
    {
        "name": "NUMA Paris",
        "lat": 48.8675894,
        "lon": 2.3496312,
        "address": "39 Rue du Caire - 75002 Paris",
        "type": "coworking",
        "url": "http://cowork.numaparis.com/",
        "power": {"available": true},
        "wifi": {"available": true}
    },
    {
        "name": "BGE PaRIF",
        "lat": 48.8682709,
        "lon": 2.3663365,
        "address": "18 Rue du Faubourg du Temple - 75011 Paris",
        "type": "coworking",
        "url": "http://www.bgparif.com/coworking/",
        "power": {"available": true},
        "wifi": {"available": true}
    },
    {
        "name": "Mozaik Coworking",
        "lat": 48.875829,
        "lon": 2.3468634,
        "address": "9 Rue Bleue - 75009 Paris",
        "type": "coworking",
        "url": "http://www.mozaik-coworking.com/",
        "power": {"available": true},
        "wifi": {"available": true}
    },
    {
        "name": "La Mutinerie",
        "lat": 48.8795595,
        "lon": 2.3717432,
        "address": "29 rue de Meaux - 75019 Paris",
        "type": "coworking",
        "url": "http://www.mutinerie.org",
        "power": {"available": true},
        "wifi": {"available": true}
    },
    {
        "name": "Delaville Café",
        "lat": 48.870664,
        "lon": 2.348671,
        "address": "34 Bd de Bonne Nouvelle - 75010 Paris",
        "type": "coffee",
        "url": "http://delavillecafe.com/",
        "power": {"available": false},
        "wifi": {"available": true}
    },
    {
        "name": "La cordée",
        "lat": 48.8489557,
        "lon": 2.3745205,
        "address": "61 Rue Traversière - 75012 Paris",
        "type": "coworking",
        "url": "http://www.la-cordee.net/en/la-cordee-paris-gare-de-lyon",
        "power": {"available": true},
        "wifi": {"available": true}
    },
    {
        "name": "Citizen Box",
        "lat": 48.896911,
        "lon": 2.3529419,
        "address": "146 rue des Poissonniers - 75018 PARIS",
        "type": "coworking",
        "url": "http://www.citizenbox.fr",
        "power": {"available": true},
        "wifi": {"available": true}
    },
    {
        "name": "Studios singuliers",
        "lat": 48.8939112,
        "lon": 2.3540976,
        "address": "46, rue René Clair – 75018 Paris",
        "type": "coworking",
        "url": "http://www.studios-singuliers.fr/",
        "power": {"available": true},
        "wifi": {"available": true}
    },
    {
        "name": "Silicon Banlieue - les bains douches",
        "lat": 48.9430815,
        "lon": 2.2466453,
        "address": "9 rue de Calais, 95100 Argenteuil",
        "type": "coworking",
        "url": "http://www.siliconbanlieue.fr",
        "power": {"available": true},
        "wifi": {"available": true}
    },
    {
        "name": "CoWorkshop",
        "lat": 48.8729534,
        "lon": 2.3624861,
        "address": "29, rue des vinaigriers 75010 paris",
        "type": "coworking",
        "url": "http://www.coworkshop.fr",
        "power": {"available": true},
        "wifi": {"available": true}
    },
    {
        "name": "Tiers Lieu Limouxin",
        "openHours": "Tuesday, Thursday: 9h00 - 18h00",
        "lat": 43.05665,
        "lon": "2.21306",
        "address":  " 29 rte Carcassonne 11300 Limoux",
        "type" : "coworking fablab",
        "power": {"available": true},
        "wifi": {"available": true},
        "url": "http://tll.sapie.eu/"
    },
    {
        "name": "Le Mixeur",
        "lat": 45.449602,
        "lon": 4.385877,
        "address": "5 rue Javelin Pagnon, 42000 Saint-Étienne",
        "type": "third place",
        "openHours": "08:00-18:00",
        "url": "http://www.le-mixeur.org/",
        "power": {"available": true, "comment": "Look on the floor under the tables, or on the wall."},
        "wifi": {"available": true, "comment": "Good wifi (sadly behind a proxy for authentication). Some exotic ports are blocked. Password is written on the walls."},
        "comment": "It's free for everyone! Tables, sofas, amazing architecture: very cool place. Often empty then quiet, sometimes occupied for meetings by local communities."
    },
    {
        "name": "Central Parc Café",
        "lat": 45.4347,
        "lon": 4.3903,
        "address": "7 rue Camille Colard, 42000 Saint-Étienne",
        "type": "coffee",
        "openHours": "09:00-19:00",
        "url": "https://plus.google.com/117095066536785671875/about",
        "power": {"available": true},
        "wifi": {"available": true, "comment": "Ask the password to the owner"},
        "coment": "You're supposed to order regularly to be allowed to stay a long time. But the owner never asked for it."
    },
    {
        "name": "Good Dog's Bar",
        "lat": 45.419097,
        "lon": 4.412052,
        "address": "2 rue Copernic, 42000 Saint-Étienne",
        "type": "restaurant",
        "url": "http://www.gooddogs.fr/",
        "wifi": {"available": true, "comment": "True good wifi. Password printed on order tickets."},
        "coment": "Excellent but cheap burgers and hot-dogs. Very nice place."
    },
    {
        "name": "Hartford Coffee Company",
        "openHours": "Monday - Thursday: 6am - 9pm, Friday - Satuday: 7am - 10pm, Sunday: 7am - 7pm",
        "lat": 38.6027557,
        "lon": -90.2524691,
        "address":  "3974 Hartford Street",
        "type" : "Bagels & Coffee Shop",
        "wifi": {"available": true},
        "power": {"available": true},
        "url": "http://www.hartfordcoffee.net"
    },
    {
        "name": "San Francisco Public Library",
        "openHours": "Monday: 12am - 5pm, Tuesday - Thursday: 9am - 8pm, Friday: 12am - 6pm, Saturday: 10am - 6pm, Sunday: 12pm - 5pm",
        "lat": 38.6027557,
        "lon": -90.2524691,
        "address":  "100 Larkin St. - San Francisco, 94102",
        "type" : "Public library",
        "wifi": {"available": true},
        "power": {"available": true},
        "url": "http://sfpl.org/"
    },
    {
        "name": "Panera Bread",
        "openHours": "Monday - Sunday: 6:30am - 9pm",
        "lat": 37.7757022,
        "lon": -122.3936884,
        "address":  "301 King St, San Francisco, CA 94158",
        "type" : "Bread shop",
        "wifi": {"available": true},
        "power": {"available": true},
        "url": "https://www.panerabread.com/"
    },
    {
        "name": "The Metreon",
        "openHours": "Monday - Sunday: 10:30am - 9pm",
        "lat": 37.78418,
        "lon": -122.40361,
        "address":  "135 4th Street, San Francisco, CA 94103",
        "type" : "Urban mall",
        "wifi": {"available": true},
        "power": {"available": false},
        "url": "http://www.cityviewmetreon.com/"
    },
    {
        "name": "Beacon Coffee & Pantry",
        "openHours": "Monday - Sunday: 7am - 6pm",
        "lat": 37.8022408,
        "lon": -122.4133416,
        "address":  "805 Columbus Avenue - San Francisco, CA 94133",
        "type" : "Coffee shop",
        "wifi": {"available": true},
        "power": {"available": false},
        "url": "http://www.beacon-sf.com/"
    },
    {
        "name": "Peets Coffee & Tea",
        "openHours": "Monday - Sunday: 5am - 8:30pm",
        "lat": 37.764842,
        "lon": -122.431898,
        "address":  "2257 Market Street - San Francisco, CA 94114",
        "type" : "Coffee shop",
        "wifi": {"available": true},
        "power": {"available": true},
        "url": "https://www.peets.com/"
    },
    {
        "name": "Union Square",
        "openHours": "24/7",
        "lat": 37.7879717,
        "lon": -122.4075456,
        "address":  "333 Post Street - San Francisco, CA 94108",
        "type" : "Public square",
        "wifi": {"available": true},
        "power": {"available": false},
        "url": "http://en.wikipedia.org/wiki/Union_Square,_San_Francisco"
    },
    {
        "name": " Peet’s Coffee & Tea ",
        "openHours": "5am - 6:30pm",
        "lat": 37.7911186,
        "lon": -122.4025815,
        "address":  "217 Montgomery Street - San Francisco, CA 94104",
        "type" : "Coffee shop",
        "wifi": {"available": true},
        "power": {"available": true},
        "url": "https://www.peets.com/"
    },
    {
        "name": "La Cantine by Tvt",
        "lat": 43.120496,
        "lon": 5.938807,
        "address":  "Maison des technologies, Place G.Pompidou",
        "type" : "coworking",
        "power": {"available": true, "comment": "at least 15"},
        "wifi": {"available": true}
    },
    {
        "name": "Café Culture",
        "lat": 43.12314,
        "lon": 5.93433,
        "openHours": "Friday to Wednesday - 9:00am to 1pm and 2:00pm to 7:00pm - Tuesday - 9:00am to 1pm and 2:00pm to 10:00pm - Thursday an Saturday - 8:00am to 1pm and 2:00pm to 7:00pm",
        "address":  "24, Rue Paul Lendrin",
        "url": "http://www.cultures-et-communication.org",
        "type": "Coffee Shop",
        "power": {"available": true},
        "wifi": {"available": true}
    },
    {
        "name": "L'archipel",
        "lat": 43.121797,
        "lon": 5.930585,
        "openHours": "Monday to Saturday - 8:00am to 8:00pm",
        "address":  "31, Rue Chevalier Paul",
        "url": "http://www.archipel-toulon.fr",
        "type": "Coworking",
        "power": {"available": true},
        "wifi": {"available": true}
    },
    {
        "name": "La fabrique",
        "openHours": "7h30 - ?",
        "lat": 43.607378,
        "lon": 1.4399286,
        "address":  "6 Place du Peyrou",
        "type" : "coffee/restaurant",
        "power": {"available": true, "comment": "at least 2"}
    },
    {
        "name": "Brasserie Père Léon",
        "lat": 43.600474,
        "lon": 1.443858999999975,
        "address": "2 Place Esquirol",
        "type" : "brasserie",
        "power": {"available": false},
        "wifi": {"available": false}
    },
    {
        "name": "The George and Dragon",
        "lat": 43.607414,
        "lon": 1.4396000000000413,
        "address": "1 Place du Peyrou",
        "type" : "pub",
        "power": {"available": true}
    },
    {
        "name": "L'impro",
        "lat": 43.602984,
        "lon": 1.4416109999999662,
        "address": "7 Carriera Leon Gambetta",
        "type" : "coffee",
        "power": {"available": false},
        "wifi": {"available": false}
    },
    {
        "name": "Un bout du monde",
        "lat": 43.606091,
        "lon": 1.441757,
        "openHours": "Tuesday to Wednesday, 12h00 - 20h00 and Thursday to Saturday, 12h00 - 23h00",
        "address": "18, rue des penitents gris",
        "type" : "coffee",
        "power": {"available": true},
        "wifi": {"available": true},
        "url": "http://www.unboutdumonde.fr/"
    },
    {
        "name": "Les coudes sur la table",
        "lat": 43.607103,
        "lon": 1.439847,
        "openHours": "Monday to Saturday, 11h30 - 19h00",
        "address": "39, rue des lois",
        "type" : "coffee",
        "power": {"available": true},
        "wifi": {"available": true},
        "url": "http://www.lescoudes-surlatable.fr/"
    },
    {
        "name": "Le Cyrano",
        "lat": 43.6039657,
        "lon": 1.4472385,
        "openHours": "7h30 - ?",
        "address": "rue St Antoine du T.",
        "type" : "coffee",
        "power": {"available": false},
        "wifi": {"available": false}
    },
    {
        "name": "Ombres blanches",
        "lat": 43.603361,
        "lon": 1.442201,
        "openHours": "Monday to Friday, 09h30 - 19h00 and Saturday, 10h - 19h30",
        "address": "48 and 50, rue Gambetta",
        "type" : "coffee and bookshop ",
        "power": {"available": true},
        "wifi": {"available": true},
        "url": "http://www.ombres-blanches.fr/"
    },
    {
        "name": "L'herbe tendre",
        "lat": 43.599589,
        "lon": 1.442543,
        "openHours": "?",
        "address": "45 Rue des Paradoux",
        "type" : "coffee and teamroom",
        "power": {"available": false},
        "wifi": {"available": false}
    },
    {
        "name": "Tau",
        "lat": 43.601919,
        "lon": 1.438586,
        "address": "18 Place de la Daurade",
        "type" : "coworking",
        "power": {"available": true},
        "wifi": {"available": true},
        "url": "http://www.tau.so/"
    },
    {
        "name": "Solaneko",
        "lat": 43.598608,
        "lon": 1.433171,
        "openHours": "Thuesday to Saturday, 11h00 - 19h00",
        "address": "9, rue Réclusane (place de l’Estrapade)",
        "type" : "coffee/restaurant",
        "power": {"available": true, "comment": "at least 2"},
        "wifi": {"available": false},
        "url": "http://www.solaneko.fr/"
    },
    {
        "name": "The Frog & Rosbif",
        "lat": 43.604832,
        "lon": 1.451072,
        "openHours": "17h30 - 2h (semaine) - 13h30 - 3h (samedi) - 13h30 - 2h (dimanche)",
        "address": "14 Rue de l'Industrie",
        "type" : "pub",
        "power": {"available": false},
        "wifi": {"available": true},
        "url": "http://www.frogpubs.com/pub-rosbif-toulouse.php"
    },
    {
        "name": "Mediathèque José Cabanis",
        "lat": 43.610632,
        "lon": 1.455578,
        "address": "1 Allée Jacques Chaban-Delmas",
        "type" : "library",
        "power": {"available": true},
        "wifi": {"available": false},
        "url":  "http://bibliotheque.toulouse.fr"
    },
    {
        "name": "Cirque Des Arts",
        "lat": 43.598077,
        "lon": 1.449283,
        "openHours": "12h00 - 18h00 (mardi - samedi)",
        "address": "5 Rue Nineau",
        "type" : "Espace artistique",
        "power": {"available": true},
        "wifi": {"available": true},
        "url":  "http://cirquedesarts.com"
    },
    {
        "name": "Le Parc",
        "openHours": "Monday - Friday, 7h30 - 21h00",
        "lat": 43.635600,
        "lon": 1.384067,
        "address":  "3 pl Marronniers, 31700 BLAGNAC, phone:05 61 71 61 71",
        "type" : "coffee/restaurant",
        "wifi": {"available": true, "comment":"SFRWifi, FreeWifi, Orange"},
        "power": {"available": true, "comment":"3"}
    },
    {
        "name": "La fiancée",
        "openHours": "Thursday to Friday: 09h30 - 18h30, Saturday: 10h30 - 18h30, Sunday: 11h30 - 18h30",
        "lat": 43.602108,
        "lon": 1.440986,
        "address":  "54 rue Pérolières",
        "type" : "coffee",
        "wifi": {"available": true},
        "power": {"available": false},
        "url":  "https://www.facebook.com/cafelafiancee"
    },
    {
        "name": "Etincelle Coworking",
        "openHours": "24/7",
        "lat": 43.605587,
        "lon": 1.447456,
        "address": "2 rue d'Austerlitz",
        "type" : "coworking",
        "power": {"available": true},
        "wifi": {"available": true},
        "url": "http://www.coworking-toulouse.com/"
    },
    {
        "name": "Bibliothèque d’Étude et du Patrimoine",
        "openHours": "Friday to Saturday: 10h00 - 19h00",
        "lat": 43.607851,
        "lon": 1.443869,
        "address": "1, Rue du Périgord",
        "type" : "public place",
        "power": {"available": true},
        "wifi": {"available": false},
        "url": "http://www.bibliotheque.toulouse.fr/bep-lieu.html"
    },
    {
        "name": "Théâtre National de Toulouse",
        "openHours": "Friday to Saturday: 13h00 - 19h00",
        "lat": 43.60493,
        "lon": 1.449517,
        "address": "1, Rue Pierre Baudis",
        "type" : "public place",
        "power": {"available": true},
        "wifi": {"available": true},
        "url": "http://www.tnt-cite.com"
    },
    {
        "name": "Bibliothèque Universitaire Jean Jaurès",
        "openHours": "Monday to Friday: 08h30 - 19h00",
        "lat": 43.579538,
        "lon": 1.403954,
        "address": "5, allée Antonio Machado",
        "type" : "public place",
        "power": {"available": true},
        "wifi": {"available": false, "comment": "Ethernet yes"},
        "url": "http://bibliotheques.univ-tlse2.fr/accueil-bibliotheques/"
    },
    {
        "name": "Coffe pot",
        "openHours": "Monday to Friday: 08h00 - 19h00, Saturday: 9h00 - 17h00",
        "lat": 43.6072966,
        "lon": 1.4397796,
        "address": "2 place du peyrou",
        "type" : "coffee",
        "power": {"available": true},
        "wifi": {"available": true},
        "url": "https://www.facebook.com/CoffeePotToulouse"
    }
]
}
